[
  {
    "name": "Centre-ville",
    "emoji": "🏯",
    "cat": "culture",
    "desc": "Cœur de Chiang Rai avec marchés, cafés et temples.",
    "attractions": "Clock Tower, Night Bazaar",
    "restaurant": "Barrab Restaurant",
    "hotel": "Le Méridien Chiang Rai",
    "tip": "Parfait pour découvrir la ville à pied.",
    "img": "https://images.unsplash.com/photo-1512453979798-5ea266f8880c?q=80&w=1200",
    "lat": 19.9105,
    "lng": 99.8406
  },
  {
    "name": "Wat Rong Khun",
    "emoji": "🤍",
    "cat": "culture",
    "desc": "Secteur du célèbre Temple Blanc.",
    "attractions": "White Temple",
    "restaurant": "Chivit Thamma Da",
    "hotel": "Nak Nakara Hotel",
    "tip": "Arriver dès l'ouverture.",
    "img": "https://images.unsplash.com/photo-1500530855697-b586d89ba3ee?q=80&w=1200",
    "lat": 19.8093,
    "lng": 99.8047
  },
  {
    "name": "Wat Rong Suea Ten",
    "emoji": "💙",
    "cat": "culture",
    "desc": "Temple Bleu aux magnifiques décorations.",
    "attractions": "Blue Temple",
    "restaurant": "Melt In Your Mouth",
    "hotel": "The Legend Chiang Rai",
    "tip": "Très beau au coucher du soleil.",
    "img": "https://images.unsplash.com/photo-1527631746610-bca00a040d60?q=80&w=1200",
    "lat": 19.9276,
    "lng": 99.8228
  },
  {
    "name": "Baan Dam",
    "emoji": "🖤",
    "cat": "culture",
    "desc": "Musée de la Maison Noire créé par Thawan Duchanee.",
    "attractions": "Black House Museum",
    "restaurant": "Lom Luang",
    "hotel": "Phowadol Resort",
    "tip": "Prévoir 2 heures de visite.",
    "img": "https://images.unsplash.com/photo-1516483638261-f4dbaf036963?q=80&w=1200",
    "lat": 19.9754,
    "lng": 99.8207
  },
  {
    "name": "Doi Tung",
    "emoji": "⛰️",
    "cat": "culture",
    "desc": "Montagne réputée pour ses jardins et son palais royal.",
    "attractions": "Mae Fah Luang Garden",
    "restaurant": "Doi Tung Café",
    "hotel": "Doi Tung Lodge",
    "tip": "Prévoir une journée complète.",
    "img": "https://images.unsplash.com/photo-1464822759023-fed622ff2c3b?q=80&w=1200",
    "lat": 20.2725,
    "lng": 99.8474
  },
  {
    "name": "Triangle d'Or",
    "emoji": "🚤",
    "cat": "culture",
    "desc": "Lieu où se rejoignent Thaïlande, Laos et Myanmar.",
    "attractions": "Golden Triangle",
    "restaurant": "Sala Mae Nam",
    "hotel": "Imperial Golden Triangle",
    "tip": "Faire une balade en bateau.",
    "img": "https://images.unsplash.com/photo-1500375592092-40eb2168fd21?q=80&w=1200",
    "lat": 20.3560,
    "lng": 100.0860
  },
  {
    "name": "Choui Fong",
    "emoji": "🍃",
    "cat": "culture",
    "desc": "Plantations de thé avec vue panoramique.",
    "attractions": "Choui Fong Tea Plantation",
    "restaurant": "Choui Fong Café",
    "hotel": "Local Resort",
    "tip": "Goûter le thé matcha.",
    "img": "https://images.unsplash.com/photo-1506744038136-46273834b3fb?q=80&w=1200",
    "lat": 20.1180,
    "lng": 99.7180
  },
  {
    "name": "Mae Salong",
    "emoji": "🌄",
    "cat": "culture",
    "desc": "Village de montagne connu pour ses plantations de thé.",
    "attractions": "Santikhiri Village",
    "restaurant": "Sweet Mae Salong",
    "hotel": "Shin Sane Guesthouse",
    "tip": "Climat plus frais toute l'année.",
    "img": "https://images.unsplash.com/photo-1472396961693-142e6e269027?q=80&w=1200",
    "lat": 20.1810,
    "lng": 99.6660
  }
]
