[
  {
    "name": "15 Palms Beach Restaurant",
    "cat": "gastro",
    "price": "€€€",
    "hours": "11:00–22:00",
    "desc": "Restaurant en bord de plage réputé pour ses fruits de mer et sa cuisine thaïe.",
    "tip": "Réserver une table au coucher du soleil.",
    "zone": "White Sand Beach",
    "note": "4.8/5",
    "spec": "Seafood",
    "lat": 12.106,
    "lng": 102.272,
    "coord": false,
    "img": ""
  },
  {
    "name": "Ruan Thai Seafood",
    "cat": "gastro",
    "price": "€€",
    "hours": "11:00–21:30",
    "desc": "Excellents fruits de mer dans le village de Bang Bao.",
    "tip": "Essayer le crabe au curry.",
    "zone": "Bang Bao",
    "note": "4.7/5",
    "spec": "Cuisine thaïe",
    "lat": 12.015,
    "lng": 102.392,
    "coord": false,
    "img": ""
  },
  {
    "name": "White Sand Night Market",
    "cat": "street",
    "price": "€",
    "hours": "17:00–22:00",
    "desc": "Nombreux stands de street food locale.",
    "tip": "Goûter les brochettes et les pancakes thaïs.",
    "zone": "White Sand Beach",
    "note": "4.7/5",
    "spec": "Street Food",
    "lat": 12.105,
    "lng": 102.273,
    "coord": false,
    "img": ""
  },
  {
    "name": "Kai Bae Street Food",
    "cat": "street",
    "price": "€",
    "hours": "17:00–22:30",
    "desc": "Petit marché animé avec cuisine locale.",
    "tip": "Très bon rapport qualité/prix.",
    "zone": "Kai Bae",
    "note": "4.6/5",
    "spec": "Street Food",
    "lat": 12.045,
    "lng": 102.296,
    "coord": false,
    "img": ""
  },
  {
    "name": "Sunset Bar Koh Chang",
    "cat": "rooftop",
    "price": "€€",
    "hours": "16:00–23:00",
    "desc": "Bar avec superbe vue sur le coucher du soleil.",
    "tip": "Happy hour en fin d'après-midi.",
    "zone": "Kai Bae",
    "note": "4.8/5",
    "spec": "Cocktails",
    "lat": 12.044,
    "lng": 102.295,
    "coord": false,
    "img": ""
  },
  {
    "name": "Nature Rocks Bar",
    "cat": "rooftop",
    "price": "€€",
    "hours": "15:00–23:00",
    "desc": "Beach bar convivial à Lonely Beach.",
    "tip": "Ambiance festive en soirée.",
    "zone": "Lonely Beach",
    "note": "4.7/5",
    "spec": "Beach Bar",
    "lat": 12.031,
    "lng": 102.298,
    "coord": false,
    "img": ""
  },
  {
    "name": "Marco Café",
    "cat": "cafe",
    "price": "€€",
    "hours": "08:00–17:00",
    "desc": "Café apprécié pour ses petits-déjeuners et cafés de spécialité.",
    "tip": "Essayer le cappuccino maison.",
    "zone": "White Sand Beach",
    "note": "4.7/5",
    "spec": "Specialty Coffee",
    "lat": 12.104,
    "lng": 102.272,
    "coord": false,
    "img": ""
  },
  {
    "name": "The Beach Café",
    "cat": "cafe",
    "price": "€€",
    "hours": "08:00–18:00",
    "desc": "Café calme avec vue sur la mer.",
    "tip": "Idéal pour le brunch.",
    "zone": "Klong Prao",
    "note": "4.6/5",
    "spec": "Brunch",
    "lat": 12.069,
    "lng": 102.286,
    "coord": false,
    "img": ""
  }
]