[
  {
    "name": "Mae Haad",
    "emoji": "⛴️",
    "cat": "shopping",
    "desc": "Port principal de Koh Tao avec commerces, restaurants et agences de plongée.",
    "attractions": "Mae Haad Pier",
    "restaurant": "Coconut Monkey",
    "hotel": "Koh Tao Montra Resort",
    "tip": "Point d'arrivée de tous les ferries.",
    "img": "",
    "lat": 10.0958,
    "lng": 99.8378
  },
  {
    "name": "Sairee Beach",
    "emoji": "🏖️",
    "cat": "nightlife",
    "desc": "La plage la plus animée de l'île avec bars, restaurants et couchers de soleil.",
    "attractions": "Sairee Beach",
    "restaurant": "Barracuda Restaurant",
    "hotel": "Sairee Cottage Resort",
    "tip": "Parfait pour admirer le coucher du soleil.",
    "img": "",
    "lat": 10.1035,
    "lng": 99.8370
  },
  {
    "name": "Chalok Baan Kao",
    "emoji": "🌴",
    "cat": "culture",
    "desc": "Secteur paisible apprécié des plongeurs et des familles.",
    "attractions": "Chalok Bay",
    "restaurant": "Yin Yang",
    "hotel": "Beach Club by Haadtien",
    "tip": "Ambiance détendue.",
    "img": "",
    "lat": 10.0700,
    "lng": 99.8400
  },
  {
    "name": "Shark Bay",
    "emoji": "🦈",
    "cat": "culture",
    "desc": "Spot réputé pour observer les requins de récif à pointe noire.",
    "attractions": "Shark Bay",
    "restaurant": "Shark Bay Restaurant",
    "hotel": "Haadtien Beach Resort",
    "tip": "Masque et tuba indispensables.",
    "img": "",
    "lat": 10.0680,
    "lng": 99.8430
  },
  {
    "name": "Ao Leuk",
    "emoji": "🤿",
    "cat": "culture",
    "desc": "Magnifique baie idéale pour le snorkeling.",
    "attractions": "Ao Leuk Beach",
    "restaurant": "Ao Leuk Beach Bar",
    "hotel": "Villa Sea View",
    "tip": "Eau très claire.",
    "img": "",
    "lat": 10.0730,
    "lng": 99.8480
  },
  {
    "name": "Tanote Bay",
    "emoji": "🐠",
    "cat": "culture",
    "desc": "Baie réputée pour ses coraux et ses poissons tropicaux.",
    "attractions": "Tanote Bay",
    "restaurant": "Poseidon Restaurant",
    "hotel": "Mountain Reef Resort",
    "tip": "Excellent snorkeling.",
    "img": "",
    "lat": 10.0870,
    "lng": 99.8500
  },
  {
    "name": "Hin Wong Bay",
    "emoji": "🌊",
    "cat": "culture",
    "desc": "Baie sauvage très appréciée des plongeurs.",
    "attractions": "Hin Wong Bay",
    "restaurant": "Hin Wong Restaurant",
    "hotel": "Hin Wong Apartments",
    "tip": "Accès en scooter conseillé.",
    "img": "",
    "lat": 10.0980,
    "lng": 99.8480
  },
  {
    "name": "Freedom Beach",
    "emoji": "☀️",
    "cat": "culture",
    "desc": "Petite plage paradisiaque au sud de l'île.",
    "attractions": "Freedom Beach",
    "restaurant": "Freedom Beach Bar",
    "hotel": "Freedom Beach Resort",
    "tip": "Très belle vue sur la baie.",
    "img": "",
    "lat": 10.0715,
    "lng": 99.8395
  }
]
