[
  {
    "name": "Central Pattaya",
    "emoji": "🏙️",
    "cat": "shopping",
    "desc": "Centre animé avec centres commerciaux, plage et nombreux restaurants.",
    "attractions": "Central Festival, Pattaya Beach",
    "restaurant": "Edge Restaurant",
    "hotel": "Hilton Pattaya",
    "tip": "Idéal pour un premier séjour.",
    "img": "https://images.unsplash.com/photo-1507525428034-b723cf961d3e?q=80&w=1200",
    "lat": 12.9280,
    "lng": 100.8770
  },
  {
    "name": "Walking Street",
    "emoji": "🌃",
    "cat": "nightlife",
    "desc": "Le cœur de la vie nocturne de Pattaya.",
    "attractions": "Walking Street",
    "restaurant": "King Seafood",
    "hotel": "Siam Bayshore Resort",
    "tip": "À découvrir surtout après 19 h.",
    "img": "https://images.unsplash.com/photo-1513635269975-59663e0ac1ad?q=80&w=1200",
    "lat": 12.9236,
    "lng": 100.8745
  },
  {
    "name": "Jomtien",
    "emoji": "🏖️",
    "cat": "culture",
    "desc": "Longue plage plus calme, idéale pour les familles.",
    "attractions": "Jomtien Beach",
    "restaurant": "Surf Kitchen",
    "hotel": "D Varee Jomtien",
    "tip": "Parfait pour les couchers de soleil.",
    "img": "https://images.unsplash.com/photo-1500375592092-40eb2168fd21?q=80&w=1200",
    "lat": 12.8930,
    "lng": 100.8760
  },
  {
    "name": "Pratumnak Hill",
    "emoji": "🌅",
    "cat": "culture",
    "desc": "Colline résidentielle avec magnifiques points de vue.",
    "attractions": "Big Buddha, Viewpoint",
    "restaurant": "The Sky Gallery",
    "hotel": "Royal Cliff Hotels",
    "tip": "À visiter tôt le matin ou au coucher du soleil.",
    "img": "https://images.unsplash.com/photo-1501785888041-af3ef285b470?q=80&w=1200",
    "lat": 12.9110,
    "lng": 100.8720
  },
  {
    "name": "Naklua",
    "emoji": "🦐",
    "cat": "food",
    "desc": "Quartier réputé pour les fruits de mer et son ambiance locale.",
    "attractions": "Marché aux poissons",
    "restaurant": "Mum Aroi",
    "hotel": "Cape Dara Resort",
    "tip": "Excellent pour un repas de fruits de mer.",
    "img": "https://images.unsplash.com/photo-1544025162-d76694265947?q=80&w=1200",
    "lat": 12.9560,
    "lng": 100.8840
  },
  {
    "name": "Wong Amat",
    "emoji": "🌊",
    "cat": "culture",
    "desc": "Secteur chic avec une plage plus paisible.",
    "attractions": "Wong Amat Beach",
    "restaurant": "Rim Talay",
    "hotel": "Centara Grand Mirage",
    "tip": "Très agréable pour se détendre.",
    "img": "https://images.unsplash.com/photo-1493558103817-58b2924bce98?q=80&w=1200",
    "lat": 12.9650,
    "lng": 100.8850
  },
  {
    "name": "Terminal 21",
    "emoji": "🛍️",
    "cat": "shopping",
    "desc": "Quartier autour du célèbre centre commercial.",
    "attractions": "Terminal 21 Pattaya",
    "restaurant": "Pier 21 Food Court",
    "hotel": "Grande Centre Point Space",
    "tip": "Le food court offre un excellent rapport qualité-prix.",
    "img": "https://images.unsplash.com/photo-1523906630133-f6934a1ab2b9?q=80&w=1200",
    "lat": 12.9490,
    "lng": 100.8830
  },
  {
    "name": "Koh Larn",
    "emoji": "🏝️",
    "cat": "culture",
    "desc": "Île paradisiaque à 40 minutes de bateau de Pattaya.",
    "attractions": "Tawaen Beach, Samae Beach",
    "restaurant": "BaanHoi",
    "hotel": "Koh Larn Riviera",
    "tip": "Partir tôt pour éviter l'affluence.",
    "img": "https://images.unsplash.com/photo-1506744038136-46273834b3fb?q=80&w=1200",
    "lat": 12.9070,
    "lng": 100.7830
  }
]
